City_ID,City,Lat,Lng,Max Temp,Humidity,Cloudiness,Wind Speed,Country,Date
0,nar'yan-mar,67.6713,53.087,-0.5,95,100,9.39,RU,1699244915
1,akureyri,65.6835,-18.0878,-0.04,100,100,4.63,IS,1699244915
2,iqaluit,63.7506,-68.5145,-3.15,63,100,12.86,CA,1699244915
3,happy valley-goose bay,53.3168,-60.3315,-3.83,54,20,5.66,CA,1699244916
4,atafu village,-8.5421,-172.5159,29.01,71,100,1.31,TK,1699244917
5,crane,31.3974,-102.3501,18.32,66,95,6.79,US,1699244917
6,telimele,10.9167,-13.3333,22.13,91,45,0.21,GN,1699244918
7,tiksi,71.6872,128.8694,-24.47,99,44,2.27,RU,1699244918
8,tolanaro,-25.0319,46.9987,23.04,83,40,10.8,MG,1699244918
9,yeppoon,-23.1333,150.7333,27.88,66,21,6.73,AU,1699244919
10,coahuayana de hidalgo,18.7,-103.6583,25.04,89,88,0.67,MX,1699244919
11,albany,42.6001,-73.9662,4.09,75,51,1.78,US,1699244911
12,port mathurin,-19.6833,63.4167,24.72,77,37,4.07,MU,1699244920
13,grytviken,-54.2811,-36.5092,1.04,99,100,0.37,GS,1699244921
14,namibe,-15.1961,12.1522,20.96,90,98,2.62,AO,1699244922
15,oranjemund,-28.55,16.4333,14.96,86,63,1.27,NA,1699244922
16,port-aux-francais,-49.35,70.2167,2.52,75,88,16.0,TF,1699244923
17,worland,44.0169,-107.9554,10.34,70,0,0.0,US,1699244674
18,adamstown,-25.066,-130.1015,22.57,81,98,7.85,PN,1699244924
19,smara,26.7384,-11.6719,20.19,70,90,6.22,EH,1699244925
20,acarau,-2.8856,-40.12,26.03,79,30,6.0,BR,1699244925
21,bethel,41.3712,-73.414,8.34,66,0,0.45,US,1699244926
22,iskateley,67.6803,53.1512,-0.55,95,100,9.39,RU,1699244926
23,enewetak,11.3474,162.3373,28.51,68,99,8.53,MH,1699244927
24,phalaborwa,-23.943,31.1411,20.6,64,13,1.69,ZA,1699244928
25,ust-nera,64.5667,143.2,-20.9,99,72,0.57,RU,1699244928
26,punta arenas,-53.15,-70.9167,8.06,66,40,5.14,CL,1699244929
27,labytnangi,66.6572,66.4183,-12.7,94,100,0.78,RU,1699244929
28,xocali,39.913,46.7903,14.55,44,1,2.17,AZ,1699244930
29,waitangi,-43.9535,-176.5597,12.68,84,87,3.58,NZ,1699244930
30,hamilton,39.1834,-84.5333,10.55,69,0,2.06,US,1699244354
31,alpine,32.835,-116.7664,19.21,43,0,0.0,US,1699244932
32,sao geraldo do araguaia,-6.4006,-48.555,24.14,91,23,0.63,BR,1699244933
33,bilibino,68.0546,166.4372,-20.8,99,69,2.67,RU,1699244933
34,kerikeri,-35.2268,173.9474,19.39,63,49,1.73,NZ,1699244934
35,mount gambier,-37.8333,140.7667,25.44,34,70,4.19,AU,1699244935
36,west island,-12.1568,96.8225,27.99,74,40,7.72,CC,1699244935
37,codrington,-38.2667,141.9667,27.44,35,100,1.87,AU,1699244935
38,margate,51.3813,1.3862,9.39,80,66,2.24,GB,1699244936
39,ust'-ilimsk,58.0006,102.6619,-6.42,72,88,3.58,RU,1699244936
40,antsiranana,-12.2787,49.2917,27.42,69,20,5.14,MG,1699244936
41,ribeira grande,38.5167,-28.7,14.32,80,96,3.13,PT,1699244937
42,ugoofaaru,5.6667,73.0,27.64,74,100,2.24,MV,1699244937
43,fortuna,40.5982,-124.1573,16.63,92,100,4.12,US,1699244651
44,new yekepa,7.5794,-8.5378,20.18,97,1,0.57,LR,1699244937
45,anadyr,64.75,177.4833,-9.72,72,0,6.0,RU,1699244938
46,puerto natales,-51.7236,-72.4875,3.5,91,10,2.23,CL,1699244938
47,touros,-5.1989,-35.4608,27.07,65,50,5.81,BR,1699244938
48,port elizabeth,-33.918,25.5701,16.84,87,0,1.54,ZA,1699244939
49,pelileo,-1.3167,-78.5333,16.8,99,96,1.48,EC,1699244939
50,remire-montjoly,4.9167,-52.2667,26.02,94,0,1.54,GF,1699244939
51,kozyatyn,49.7143,28.8339,8.39,84,0,5.12,UA,1699244940
52,la sarre,48.8002,-79.1996,-5.48,85,88,1.83,CA,1699244738
53,chibougamau,49.9168,-74.3659,-6.21,73,100,2.06,CA,1699244940
54,cabo san lucas,22.8909,-109.9124,27.09,73,100,0.45,MX,1699244223
55,darfo boario terme,45.8835,10.1807,10.46,77,5,3.13,IT,1699244941
56,whitehorse,60.7161,-135.0538,-1.57,86,100,6.71,CA,1699244746
57,tralee,52.2704,-9.7026,9.75,80,90,7.39,IE,1699244942
58,jamestown,42.097,-79.2353,5.95,82,0,1.54,US,1699244844
59,sretensk,52.2453,117.7093,-5.6,27,43,0.42,RU,1699244943
60,blackmans bay,-43.0167,147.3167,20.85,51,48,0.89,AU,1699244943
61,thunder bay,48.4001,-89.3168,2.99,93,100,6.69,CA,1699244751
62,purpe,64.4803,76.6897,-11.94,94,16,4.42,RU,1699244944
63,labasa,-16.4167,179.3833,28.15,72,99,4.75,FJ,1699244944
64,katsuren-haebaru,26.3369,127.8719,29.21,71,20,5.14,JP,1699244944
65,ilulissat,69.2167,-51.1,-3.99,54,21,9.26,GL,1699244945
66,carnarvon,-24.8667,113.6333,25.4,60,97,5.73,AU,1699244945
67,afaahiti,-17.75,-149.2833,23.93,83,43,4.51,PF,1699244945
68,bria,6.5423,21.9863,19.75,93,15,0.66,CF,1699244946
69,thompson,55.7435,-97.8558,-8.91,86,100,2.57,CA,1699244946
70,puerto ayora,-0.7393,-90.3518,24.75,89,84,3.13,EC,1699244946
71,manokwari,-0.8667,134.0833,28.2,78,96,2.99,ID,1699244947
72,berdigestyakh,62.0989,126.6992,-16.01,90,45,1.03,RU,1699244947
73,taoudenni,22.6783,-3.9836,26.41,16,0,3.26,ML,1699244947
74,qamdo,31.1667,97.2333,-1.57,16,0,1.25,CN,1699244948
75,hermanus,-34.4187,19.2345,15.75,86,100,0.64,ZA,1699244948
76,samfya,-11.3649,29.5565,20.35,82,100,1.49,ZM,1699244948
77,francisco sa,-16.4758,-43.4883,22.82,86,87,7.67,BR,1699244949
78,hoyland nether,53.5,-1.45,7.84,79,58,4.74,GB,1699244949
79,acapulco de juarez,16.8634,-99.8901,26.64,84,54,1.57,MX,1699244903
80,edinburgh of the seven seas,-37.0676,-12.3116,13.33,77,100,5.6,SH,1699244950
81,yellowknife,62.456,-114.3525,-6.44,93,75,6.71,CA,1699244875
82,muli,2.9167,73.5667,27.69,76,96,3.65,MV,1699244950
83,kalmunai,7.4167,81.8167,28.65,70,81,1.5,LK,1699244950
84,vilyuchinsk,52.9306,158.4028,0.15,61,79,9.46,RU,1699244951
85,sinalunga,43.2152,11.7495,13.03,87,0,2.34,IT,1699244951
86,qaqortoq,60.7167,-46.0333,-1.16,87,100,5.7,GL,1699244951
87,nizhniy odes,63.6445,54.856,0.78,87,100,4.86,RU,1699244952
88,rongelap,11.1635,166.8941,28.07,77,97,9.02,MH,1699244952
89,pariaman,-0.619,100.12,29.03,76,27,1.83,ID,1699244952
90,avarua,-21.2078,-159.775,23.03,64,40,5.14,CK,1699244952
91,kembe,4.6228,21.8865,19.86,98,40,0.23,CF,1699244953
92,irtyshsk,53.3333,75.4572,-2.23,85,55,3.53,KZ,1699244953
93,invercargill,-46.4,168.35,14.45,59,11,3.58,NZ,1699244953
94,vryburg,-26.9566,24.7284,20.8,58,0,3.4,ZA,1699244954
95,bel ombre,-4.6167,55.4167,28.91,74,40,6.17,SC,1699244954
96,la passe,45.5549,-0.8967,11.13,77,100,10.26,FR,1699244954
97,lorengau,-2.0226,147.2712,28.77,76,99,2.48,PG,1699244955
98,villa vasquez,19.7411,-71.4464,25.16,86,98,1.99,DO,1699244955
99,turinsk,58.0458,63.696,-2.35,82,100,3.15,RU,1699244956
100,kokpekty,48.75,82.4,-2.31,63,8,4.19,KZ,1699244956
101,bereket,39.2446,55.5154,16.83,42,0,3.93,TM,1699244956
102,swakopmund,-22.6833,14.5333,14.47,83,98,0.59,NA,1699244957
103,marquette,46.5333,-87.6335,4.69,97,100,2.24,US,1699244957
104,cockburn town,21.4612,-71.1419,27.85,71,86,5.48,TC,1699244957
105,pudozh,61.8099,36.5345,3.86,96,100,5.36,RU,1699244958
106,labrador city,52.9463,-66.9114,-7.05,86,75,5.14,CA,1699244958
107,island harbour,50.724,-1.2758,11.07,88,79,1.34,GB,1699244958
108,harper,4.375,-7.7169,25.26,89,14,1.53,LR,1699244958
109,bredasdorp,-34.5322,20.0403,14.37,91,100,1.35,ZA,1699244959
110,nuriootpa,-34.4833,139.0,27.99,12,5,7.71,AU,1699244959
111,kegeyli shahar,42.7767,59.6078,5.05,39,80,3.0,UZ,1699244959
112,tindouf,27.6711,-8.1474,17.25,63,0,4.63,DZ,1699244960
113,shangzhi,45.2167,127.9667,-6.25,94,100,12.0,CN,1699244960
114,ushuaia,-54.8,-68.3,5.79,87,75,7.2,AR,1699244807
115,georgetown,5.4112,100.3354,30.97,74,20,2.57,MY,1699244961
116,kawalu,-7.3817,108.2082,31.63,53,87,2.34,ID,1699244961
117,ulanhot,46.0833,122.0833,-6.45,36,100,14.44,CN,1699244961
118,walvis bay,-22.9575,14.5053,14.53,88,100,1.03,NA,1699244962
119,eyl,7.9803,49.8164,26.75,81,37,6.4,SO,1699244962
120,ciudad lazaro cardenas,17.9583,-102.2,25.82,87,29,0.89,MX,1699244864
121,rio grande,-32.035,-52.0986,16.08,78,92,4.69,BR,1699244962
122,mikomeseng,2.1361,10.6132,20.9,99,100,0.24,GQ,1699244963
123,kavieng,-2.5744,150.7967,28.71,73,100,2.8,PG,1699244963
124,haldwani,29.2167,79.5167,20.73,34,0,1.37,IN,1699244963
125,derbent,42.0678,48.2899,14.61,77,45,0.37,RU,1699244964
126,la foa,-21.7108,165.8276,23.24,68,54,7.12,NC,1699244964
127,dunedin,-45.8742,170.5036,10.94,67,91,4.36,NZ,1699244897
128,st. john's,47.5649,-52.7093,8.87,98,100,6.17,CA,1699244965
129,sinabang,2.4803,96.3801,26.95,83,100,0.55,ID,1699244965
130,kapa'a,22.0752,-159.319,28.99,75,100,8.23,US,1699244965
131,isafjordur,66.0755,-23.124,0.22,92,100,12.04,IS,1699244965
132,viedma,-40.8135,-62.9967,16.81,48,100,2.89,AR,1699244966
133,lerwick,60.1545,-1.1494,9.0,85,100,4.92,GB,1699244966
134,susuman,62.7833,148.1667,-20.01,95,89,0.67,RU,1699244966
135,pieksamaki,62.3,27.1333,1.92,100,100,1.77,FI,1699244967
136,mana,5.6592,-53.7767,26.52,88,83,4.85,GF,1699244967
137,talnakh,69.4865,88.3972,-11.55,96,100,2.59,RU,1699244967
138,dowlatabad,32.7998,51.6955,3.82,100,0,1.03,IR,1699244968
139,coquimbo,-29.9533,-71.3436,13.85,88,0,2.57,CL,1699244968
140,stanley,54.868,-1.6985,5.4,93,0,2.06,GB,1699244848
141,tutong,4.8,114.65,30.05,75,90,2.55,BN,1699244968
142,badger,64.8,-147.5333,-7.07,90,100,1.54,US,1699244969
143,san patricio,28.017,-97.5169,24.92,78,100,3.69,US,1699244969
144,rikaze,29.25,88.8833,4.91,15,0,0.9,CN,1699244969
145,torghay,49.6339,63.4981,3.88,71,32,4.39,KZ,1699244970
146,wanganui,-39.9333,175.05,13.66,89,72,7.15,NZ,1699244970
147,shurugwi,-19.6702,30.0059,19.47,43,36,2.41,ZW,1699244970
148,carbonear,47.7332,-53.2148,9.51,97,100,4.99,CA,1699244971
149,wesley hills,41.1593,-74.0699,9.55,74,59,2.02,US,1699244972
150,mili,6.0815,171.735,28.35,79,100,9.21,MH,1699244972
151,geraldton,-28.7667,114.6,24.23,53,1,6.69,AU,1699244972
152,sevan,40.5484,44.9487,5.21,66,2,2.83,AM,1699244973
153,lihue,21.9789,-159.3672,28.58,68,100,8.23,US,1699244925
154,dudinka,69.4058,86.1778,-14.07,97,100,2.68,RU,1699244973
155,cobija,-11.0267,-68.7692,24.13,77,78,0.87,BO,1699244974
156,ascension,30.2169,-90.9001,18.12,85,0,0.0,US,1699244974
157,itapema,-27.0903,-48.6114,16.68,94,31,1.94,BR,1699244832
158,pisco,-13.7,-76.2167,19.03,82,0,5.66,PE,1699244680
159,kodiak,57.79,-152.4072,-1.27,55,0,3.09,US,1699244975
160,nova sintra,14.8667,-24.7167,23.94,72,33,3.16,CV,1699244975
161,arba minch,6.0333,37.55,18.76,88,38,0.95,ET,1699244975
162,pionerskiy,54.9508,20.2275,8.91,90,100,7.12,RU,1699244976
163,makushino,55.2103,67.2442,-1.24,82,97,4.12,RU,1699244976
164,wailua homesteads,22.0669,-159.378,28.24,75,100,8.23,US,1699244976
165,aykhal,66.0,111.5,-11.4,94,100,2.76,RU,1699244977
166,camana,-16.6228,-72.7111,18.85,81,100,2.85,PE,1699244977
167,itaueira,-7.6033,-43.0256,27.56,62,59,1.13,BR,1699244977
168,tra mhor,52.1624,-7.1524,8.74,68,66,1.79,IE,1699244977
169,razam,18.4667,83.6667,28.32,67,41,1.81,IN,1699244978
170,lubango,-14.9172,13.4925,16.84,66,100,1.13,AO,1699244978
171,tokar,18.4254,37.729,28.57,73,48,2.47,SD,1699244979
172,ulladulla,-35.35,150.4667,24.32,55,48,6.72,AU,1699244979
173,yanykurgan,43.915,67.2481,13.33,32,100,2.94,KZ,1699244979
174,vila franca do campo,37.7167,-25.4333,14.38,99,46,2.84,PT,1699244980
175,richards bay,-28.783,32.0377,21.29,86,89,5.62,ZA,1699244980
176,papatowai,-46.5619,169.4708,11.87,58,43,3.36,NZ,1699244981
177,haiku-pauwela,20.9219,-156.3051,25.58,67,20,7.2,US,1699244981
178,port alfred,-33.5906,26.891,18.09,86,42,1.21,ZA,1699244785
179,vadso,70.0744,29.7487,1.09,93,75,4.63,NO,1699244981
180,novodvinsk,64.4165,40.8122,2.66,96,100,3.72,RU,1699244982
181,arraial do cabo,-22.9661,-42.0278,21.03,67,1,7.32,BR,1699244982
182,tunceli,39.1083,39.5471,11.8,79,33,1.04,TR,1699244982
183,colonia,50.9333,6.95,11.01,81,100,0.89,DE,1699244982
184,central point,42.376,-122.9164,12.84,84,100,1.48,US,1699244983
185,olonkinbyen,70.9221,-8.7187,-1.4,70,100,11.28,SJ,1699244983
186,bukama,-9.2,25.85,21.5,98,100,0.58,CD,1699244983
187,ukholovo,53.7929,40.4892,8.34,93,95,5.36,RU,1699244984
188,holualoa,19.6228,-155.9522,25.91,77,75,4.12,US,1699244880
189,bokoro,12.3807,17.0568,25.36,16,10,4.07,TD,1699244984
190,cidreira,-30.1811,-50.2056,17.39,74,65,5.62,BR,1699244984
191,praia da vitoria,38.7333,-27.0667,13.2,82,20,3.03,PT,1699244985
192,san antonio de pale,-1.4014,5.6325,25.98,85,90,5.61,GQ,1699244985
193,laguna,38.421,-121.4238,19.49,82,40,3.6,US,1699244985
194,auki,-8.7676,160.7034,25.84,90,100,1.4,SB,1699244985
195,niquelandia,-14.4739,-48.4597,24.3,81,100,1.39,BR,1699244986
196,paphos,34.7667,32.4167,21.24,55,75,3.6,CY,1699244986
197,sao francisco,-15.9486,-44.8644,23.58,84,48,1.7,BR,1699244986
198,ceelbuur,4.685,46.6176,24.54,86,100,3.58,SO,1699244987
199,giarmata,45.8383,21.3108,9.99,83,47,2.95,RO,1699244987
200,chikwawa,-16.0335,34.8009,24.15,68,65,0.59,MW,1699244987
201,klyuchi,52.2667,79.1667,-2.11,81,33,2.71,RU,1699244987
202,saint-gaudens,43.0833,0.6667,6.12,85,9,2.1,FR,1699244988
203,alice springs,-23.7,133.8833,34.75,8,0,2.57,AU,1699244988
204,tsiombe,-25.3,45.4833,23.3,76,100,4.32,MG,1699244988
205,mamers,48.3333,0.25,8.48,94,100,4.82,FR,1699244988
206,college,64.8569,-147.8028,-7.03,88,100,1.54,US,1699244989
207,zonguldak,41.25,31.8333,12.47,72,0,2.39,TR,1699244989
208,matoury,4.8483,-52.3317,25.98,94,0,1.54,GF,1699244989
209,acheng,45.5454,126.977,-4.33,91,100,12.48,CN,1699244989
210,sao luis de montes belos,-16.525,-50.3722,23.56,53,50,1.93,BR,1699244799
211,kavaratti,10.5669,72.642,27.86,73,100,3.59,IN,1699244990
212,kalifornsky,60.4183,-151.29,-0.34,98,100,2.57,US,1699244990
213,lebu,-37.6167,-73.65,10.76,84,99,3.71,CL,1699244990
214,kapuskasing,49.4169,-82.4331,-5.0,74,75,3.6,CA,1699244991
215,saudarkrokur,65.7461,-19.6394,1.7,86,100,6.44,IS,1699244991
216,asau,46.4333,26.4,10.71,75,1,5.63,RO,1699244991
217,burang,30.25,81.1667,1.9,22,0,1.51,CN,1699244991
218,xining,36.6167,101.7667,7.55,15,0,0.62,CN,1699244991
219,umba,66.6871,34.3429,1.21,91,97,5.85,RU,1699244992
220,fortaleza,-3.7227,-38.5247,28.93,65,40,5.14,BR,1699244992
221,gutao,37.2025,112.1781,7.06,19,0,6.71,CN,1699244992
222,nagato,34.3833,131.2,21.45,88,100,9.05,JP,1699244992
223,hanawa,40.1836,140.7872,19.58,70,100,2.42,JP,1699244993
224,palmer,42.1584,-72.3287,7.27,75,0,2.06,US,1699244993
225,curuca,-0.7289,-47.8481,24.09,92,68,0.88,BR,1699244993
226,mbandjok,4.45,11.9,20.13,98,54,0.48,CM,1699244994
227,araripina,-7.5761,-40.4983,24.38,63,63,1.62,BR,1699244994
228,khandyga,62.6667,135.6,-18.8,89,98,0.66,RU,1699244994
229,chai buri,8.4622,99.0763,31.86,61,87,1.1,TH,1699244994
230,itamaraca,-7.7478,-34.8256,27.03,70,80,3.96,BR,1699244994
231,bismarck,46.8083,-100.7837,8.78,93,20,6.17,US,1699244995
232,velikiye luki,56.34,30.5452,6.87,86,100,5.28,RU,1699244995
233,calama,-22.4667,-68.9333,11.27,22,0,2.06,CL,1699244466
234,norfolk,42.1668,-71.2495,8.34,76,0,2.57,US,1699244995
235,barra de santo antonio,-9.4047,-35.5072,25.6,80,71,4.93,BR,1699244995
236,al hudaydah,14.7978,42.9545,28.73,68,96,2.73,YE,1699244996
237,margaret river,-33.95,115.0667,21.22,61,75,7.04,AU,1699244996
238,jumla,29.2747,82.1838,13.3,56,5,1.94,NP,1699244996
239,nagqu,31.5,92.0,-7.83,39,2,1.86,CN,1699244996
240,santiago de cao,-7.9589,-79.2392,19.07,82,20,3.6,PE,1699244997
241,port moresby,-9.4431,147.1797,28.68,74,75,10.29,PG,1699244997
242,hepo,23.4308,115.8299,28.13,61,87,4.09,CN,1699244880
243,el granada,37.5027,-122.4694,20.46,91,100,5.14,US,1699244997
244,taroa,8.7058,171.2275,28.27,74,100,9.54,MH,1699244997
245,sanctuary point,-35.1114,150.629,20.11,55,58,5.75,AU,1699244998
246,sinop,41.7711,34.8709,12.24,66,4,3.31,TR,1699244998
247,kununurra,-15.7667,128.7333,36.99,39,94,4.12,AU,1699244998
248,pont rouge,48.8833,-72.0825,-3.84,75,11,2.27,CA,1699244999
249,peterhead,57.5058,-1.7981,2.22,81,39,2.75,GB,1699244999
250,tierralta,8.1736,-76.0592,24.0,92,100,1.64,CO,1699244999
251,fort bragg,35.139,-79.006,11.36,87,0,0.0,US,1699244999
252,kapoeta,4.7717,33.5903,20.91,88,100,0.53,SS,1699244999
253,tambopata,-12.7333,-69.1833,25.08,69,95,1.26,PE,1699245000
254,leribe,-28.8718,28.045,16.86,59,52,2.25,LS,1699245000
255,portland,45.5234,-122.6762,12.47,95,100,1.34,US,1699244578
256,port blair,11.6667,92.75,29.02,79,75,3.6,IN,1699245000
257,kidal,18.4411,1.4078,24.63,9,2,3.15,ML,1699244778
258,fisterra,42.9049,-9.2629,12.08,62,20,10.48,ES,1699245001
259,cestos city,5.46,-9.5828,25.37,89,11,1.74,LR,1699245002
260,general conesa,-40.1,-64.4333,21.44,28,100,5.11,AR,1699245002
261,murrells inlet,33.551,-79.0414,11.03,82,0,1.54,US,1699245003
262,acoyapa,11.9703,-85.1711,24.52,94,100,0.21,NI,1699245004
263,chimore,-16.9833,-65.1333,26.89,59,100,0.93,BO,1699245004
264,manismata,-2.4667,111.0333,30.81,65,100,1.51,ID,1699245005
265,camiri,-20.05,-63.5167,22.09,64,78,1.24,BO,1699245005
266,lazaro cardenas,17.9583,-102.2,25.82,87,29,0.89,MX,1699244864
267,patong,7.8961,98.2966,31.08,71,98,1.45,TH,1699245006
268,al fuwayliq,26.4432,43.2534,21.74,45,8,2.18,SA,1699245006
269,luganville,-15.5333,167.1667,26.38,85,85,4.56,VU,1699245007
270,muborak,39.2553,65.1528,20.7,29,100,2.59,UZ,1699245007
271,nova vicosa,-17.8919,-39.3719,24.05,74,100,7.34,BR,1699245008
272,faya-largeau,17.9257,19.1043,22.44,21,0,6.87,TD,1699245008
273,sao joao da barra,-21.6403,-41.0511,19.76,72,20,4.72,BR,1699245008
274,galesong,-5.3166,119.3661,34.01,55,83,3.03,ID,1699245009
275,flying fish cove,-10.4217,105.6791,28.82,74,100,5.14,CX,1699245009
276,amagunze,6.3267,7.6539,23.68,96,100,1.54,NG,1699245010
277,niteroi,-22.8833,-43.1036,22.0,64,40,2.57,BR,1699245010
278,mount pearl,47.5166,-52.7813,8.41,98,100,6.17,CA,1699245011
279,chiungutwa,-10.8833,38.9833,27.05,64,81,2.38,TZ,1699245011
280,graaff-reinet,-32.2522,24.5308,12.18,86,26,0.88,ZA,1699245011
281,alesund,62.4723,6.1549,5.74,71,20,4.12,NO,1699245011
282,chiang mai,18.75,99.0,32.29,66,20,1.03,TH,1699245012
283,kampene,-3.6,26.6667,20.45,99,100,0.68,CD,1699245012
284,vernon,50.2581,-119.2691,6.83,91,92,1.03,CA,1699245012
285,constantia,44.1833,28.65,11.5,72,41,9.59,RO,1699245013
286,obihiro,42.9172,143.2044,7.67,84,100,0.84,JP,1699245013
287,siwa oasis,29.2041,25.5195,22.54,29,0,1.51,EG,1699245014
288,oriximina,-1.7656,-55.8661,26.95,66,69,1.41,BR,1699245014
289,tarfaya,27.9358,-12.9218,21.32,77,97,9.37,MA,1699245014
290,leer,53.2316,7.461,9.97,96,36,6.48,DE,1699245015
291,okhotsk,59.3833,143.3,-12.54,80,99,8.92,RU,1699245015
292,weno,7.4515,151.8468,30.97,70,75,6.17,FM,1699245015
293,brisas de zicatela,15.8369,-97.0419,28.29,57,40,2.06,MX,1699245016
294,reggane,26.7158,0.1714,24.06,15,0,1.9,DZ,1699245016
295,qianzhou,28.3167,109.7167,19.64,40,96,1.8,CN,1699245017
296,shchekino,54.0092,37.5119,8.61,91,61,6.12,RU,1699245017
297,longyearbyen,78.2186,15.6401,-14.09,66,20,5.14,SJ,1699245017
298,trondheim,63.4305,10.3951,6.05,83,100,1.81,NO,1699244748
299,gaspe,48.8334,-64.4819,-1.88,64,40,2.57,CA,1699245018
300,aasiaat,68.7098,-52.8699,-17.37,82,44,3.42,GL,1699245018
301,hithadhoo,-0.6,73.0833,27.22,78,95,5.3,MV,1699245019
302,kingston,17.997,-76.7936,28.53,84,20,3.09,JM,1699244765
303,tura,25.5198,90.2201,26.6,52,0,0.3,IN,1699245019
304,selfoss,63.9331,-20.9971,3.36,61,86,6.86,IS,1699245020
305,rosarito,32.3333,-117.0333,19.26,79,24,1.42,MX,1699245020
306,markovo,57.3206,107.0881,-4.7,65,100,3.32,RU,1699245020
307,nueva gerona,21.8833,-82.8,24.85,76,100,7.26,CU,1699245021
308,nikolayevsk-on-amure,53.1406,140.73,-6.0,57,44,4.0,RU,1699245021
309,puerto maldonado,-12.6,-69.1833,25.4,69,98,1.18,PE,1699245021
310,puerto baquerizo moreno,-0.9,-89.6,24.71,72,77,5.57,EC,1699245022
311,rawlins,41.7911,-107.2387,7.94,49,0,6.17,US,1699245022
312,kone,-21.0595,164.8658,25.29,58,50,4.42,NC,1699245023
313,klaksvik,62.2266,-6.589,7.51,94,100,8.74,FO,1699245023
314,toma,12.7667,-2.8833,26.47,39,52,2.71,BF,1699245023
315,hawaiian paradise park,19.5933,-154.9731,23.73,87,100,2.57,US,1699245024
316,kangasniemi,61.9936,26.6479,5.01,98,100,2.46,FI,1699245024
317,morondava,-20.2833,44.2833,27.1,71,80,1.72,MG,1699245025
318,angaur state,6.906,134.13,29.02,72,27,3.01,PW,1699245025
319,vorgashor,67.5833,63.95,-7.51,91,100,4.26,RU,1699245026
320,mocoreta,-30.6189,-57.9634,13.99,90,0,2.54,AR,1699245026
321,merizo village,13.2658,144.6691,31.31,79,19,5.96,GU,1699245027
322,kodinsk,58.6881,99.1844,-6.42,68,100,4.15,RU,1699245027
323,udachny,66.4167,112.4,-13.64,84,100,2.63,RU,1699245028
324,alofi,-19.0595,-169.9187,25.94,69,33,5.66,NU,1699245028
325,roseti,44.2167,27.4333,12.8,79,18,2.24,RO,1699245029
326,choyr,46.3611,108.3611,-10.46,80,73,5.89,MN,1699245029
327,taltal,-25.4,-70.4833,15.7,84,6,1.42,CL,1699245021
328,kayyerkan,69.3786,87.7439,-11.99,95,100,2.63,RU,1699245030
329,ketchikan,55.3422,-131.6461,9.26,93,100,0.0,US,1699245030
330,xinpu,34.5997,119.1594,13.67,27,0,10.0,CN,1699245031
331,karratha,-20.7377,116.8463,37.35,31,35,6.76,AU,1699245031
332,howrah,22.5892,88.3103,29.0,58,2,4.12,IN,1699245031
333,katsuura,35.1333,140.3,21.01,81,59,8.54,JP,1699245032
334,waddan,29.1614,16.139,21.36,22,0,1.62,LY,1699245032
335,vila do maio,15.1333,-23.2167,25.44,76,18,5.15,CV,1699245032
336,inongo,-1.95,18.2667,21.97,96,95,1.22,CD,1699245033
337,cill airne,52.05,-9.5167,9.06,83,84,5.74,IE,1699245033
338,greymouth,-42.4667,171.2,13.75,64,92,3.81,NZ,1699245033
339,igarka,67.4667,86.5833,-14.5,96,97,1.88,RU,1699245034
340,fort st. john,56.2499,-120.8529,-1.06,100,100,5.66,CA,1699245034
341,yarmouth,41.7057,-70.2286,9.98,93,0,1.54,US,1699245034
342,houghton,47.1219,-88.569,6.17,94,100,4.12,US,1699245035
343,weihai,37.5017,122.1136,10.25,46,39,16.14,CN,1699245035
344,norilsk,69.3535,88.2027,-11.65,95,100,2.03,RU,1699245036
345,kill devil hills,36.0307,-75.676,17.21,84,0,0.0,US,1699245036
346,cervantes,-39.05,-67.3833,18.49,37,100,2.58,AR,1699245036
347,carmarthen,51.8555,-4.3054,10.64,81,24,6.69,GB,1699245036
348,gagliano del capo,39.8442,18.3695,16.56,71,1,4.8,IT,1699245037
349,petropavlovsk-kamchatsky,53.0452,158.6483,-0.67,88,75,4.92,RU,1699245037
350,amga,60.8953,131.9608,-13.86,87,100,0.66,RU,1699245037
351,mihaesti,45.0333,24.25,8.82,94,27,1.06,RO,1699245038
352,binka,21.0333,83.8,28.23,60,23,1.83,IN,1699245039
353,alexandria,31.2156,29.9553,17.3,60,0,2.56,EG,1699244971
354,magadan,59.5667,150.8,-6.9,73,47,4.08,RU,1699244928
355,bamboo flat,11.7,92.7167,29.05,79,75,3.6,IN,1699245040
356,kazanka,47.8462,32.8218,13.12,72,98,5.15,UA,1699245040
357,hotan,37.0997,79.9269,14.36,15,21,1.75,CN,1699245040
358,isla mujeres,21.2311,-86.731,26.03,73,100,6.98,MX,1699245041
359,sungailiat,-1.85,106.1333,29.43,66,89,2.97,ID,1699245041
360,kruisfontein,-34.0033,24.7314,16.95,68,45,0.55,ZA,1699245041
361,urangan,-25.3,152.9,22.43,70,90,7.24,AU,1699245042
362,vung tau,10.346,107.0843,28.96,74,67,3.2,VN,1699245042
363,dzidzantun,21.25,-89.05,23.51,75,100,2.37,MX,1699245042
364,berezovyy,51.6667,135.7,-5.15,36,23,1.35,RU,1699245043
365,kolonia,50.9333,6.95,11.01,81,100,0.89,DE,1699244982
366,ust-tsilma,65.441,52.1498,0.34,96,100,4.02,RU,1699245044
367,itoman,26.1247,127.6694,29.21,77,75,5.14,JP,1699245044
368,sao vicente,-23.9631,-46.3919,19.59,26,18,0.4,BR,1699245044
369,kuraymah,18.55,31.85,28.35,26,30,3.0,SD,1699245045
370,luderitz,-26.6481,15.1594,14.33,81,34,2.72,NA,1699245045
371,bonthe,7.5264,-12.505,25.3,87,3,0.88,SL,1699245045
372,khadan khak,30.7477,67.7085,16.66,35,92,1.88,PK,1699245045
373,sona,45.4388,10.8255,9.41,93,0,1.54,IT,1699245046
374,chul'man,56.8479,124.9104,-14.41,77,17,1.04,RU,1699245046
375,wajir,1.7471,40.0573,23.98,94,75,1.54,KE,1699245046
376,westerly,41.3776,-71.8273,10.5,71,0,2.06,US,1699245047
377,armacao de buzios,-22.7469,-41.8817,19.27,74,0,5.85,BR,1699244802
378,uturoa,-16.7333,-151.4333,25.75,80,21,5.51,PF,1699245047
379,eenhana,-17.4667,16.3333,19.21,29,83,2.09,NA,1699245048
380,saint-pierre,-21.3393,55.4781,25.87,78,100,5.14,RE,1699245048
381,yinchuan,38.4681,106.2731,6.41,13,1,1.25,CN,1699245048
382,shingu,33.7333,135.9833,22.1,92,100,5.52,JP,1699245049
383,ilhabela,-23.7781,-45.3581,17.25,79,42,1.98,BR,1699245049
384,monte caseros,-30.2536,-57.6363,13.75,88,1,3.13,AR,1699245049
385,carutapera,-1.195,-46.02,25.79,84,75,2.49,BR,1699245050
386,cabedelo,-6.9811,-34.8339,26.37,68,63,4.57,BR,1699245050
387,ponta delgada,37.7333,-25.6667,14.55,72,20,1.03,PT,1699245050
388,nemuro,43.3236,145.575,13.68,95,100,10.42,JP,1699245050
389,quepos,9.4236,-84.1652,23.86,95,100,1.51,CR,1699245051
390,saldanha,-33.0117,17.9442,16.03,89,100,2.56,ZA,1699245051
391,puerto aysen,-45.4,-72.7,4.36,99,64,0.49,CL,1699245051
392,puerto madero,14.7208,-92.4215,27.11,100,40,0.0,MX,1699245051
393,pajacuaran,20.1167,-102.5667,15.35,51,62,1.23,MX,1699245052
394,hadibu,12.65,54.0333,26.8,75,100,2.57,YE,1699245052
395,hasaki,35.7333,140.8333,24.22,76,45,9.22,JP,1699245052
396,la ronge,55.1001,-105.2842,-3.86,93,100,4.63,CA,1699245052
397,santa vitoria do palmar,-33.5189,-53.3681,12.87,94,92,2.6,BR,1699245052
398,duki,30.1541,68.5728,22.71,29,73,1.44,PK,1699245053
399,saint-louis,16.3333,-15.0,24.8,20,58,4.55,SN,1699245053
400,prineville,44.2999,-120.8345,10.41,87,100,0.45,US,1699245053
401,kabo,7.6994,18.629,20.84,83,7,1.28,CF,1699245054
402,rock springs,41.5875,-109.2029,7.69,54,0,3.09,US,1699244777
403,tlacotepec,20.0667,-97.8667,15.07,97,99,0.05,MX,1699245054
404,king's lynn,52.7517,0.3952,8.01,98,0,4.63,GB,1699245054
405,saipan,15.1355,145.701,31.39,66,0,6.17,MP,1699245055
406,kurumkan,54.3,110.3,-7.15,45,100,0.89,RU,1699245055
407,i-n-salah,27.1935,2.4607,23.81,14,0,1.87,DZ,1699245055
408,corner brook,48.9667,-57.9484,0.09,78,100,4.56,CA,1699244977
409,salalah,17.0151,54.0924,26.05,78,0,1.03,OM,1699245056
410,minas de marcona,-15.2119,-75.1103,15.34,77,100,4.04,PE,1699245056
411,chivacoa,10.1603,-68.895,22.57,97,99,0.66,VE,1699245056
412,beledweyne,4.7358,45.2036,22.65,96,100,0.74,SO,1699245056
413,mogadishu,2.0371,45.3438,23.93,94,75,1.54,SO,1699245056
414,bamor kalan,24.9,78.15,28.87,28,6,1.32,IN,1699245057
415,yatou,37.15,122.3833,10.62,34,5,12.32,CN,1699245057
416,powell river,49.8496,-124.5361,11.0,91,100,5.15,CA,1699244891
417,mata-utu,-13.2816,-176.1745,28.01,80,99,9.79,WF,1699245058
418,pak phanang,8.3511,100.202,32.24,68,100,2.31,TH,1699245058
419,aransas pass,27.9095,-97.15,23.88,86,0,3.6,US,1699245058
420,westport,41.1415,-73.3579,10.18,61,0,3.58,US,1699245040
421,antonio enes,-16.2325,39.9086,26.14,67,21,1.81,MZ,1699245059
422,baskale,38.0453,44.0172,6.77,40,0,0.74,TR,1699245059
423,jayapura,-2.5333,140.7,31.66,74,100,2.13,ID,1699245059
424,arno,60.1167,18.6333,6.55,96,99,3.55,SE,1699245059
425,satipo,-11.2522,-74.6386,19.99,98,63,1.18,PE,1699245060
426,timimoun,29.2639,0.231,17.21,17,0,3.09,DZ,1699245060
427,timmins,48.4669,-81.3331,-4.1,74,100,3.6,CA,1699245061
428,utrik,11.2278,169.8474,28.13,80,90,8.15,MH,1699245061
429,ghat,24.9647,10.1728,21.05,16,0,1.9,LY,1699245061
430,zaozersk,69.4005,32.4476,-0.18,98,100,4.37,RU,1699245061
431,daru,-9.0763,143.2092,27.52,75,64,5.75,PG,1699245062
432,williams lake,52.1415,-122.1445,7.76,75,75,5.14,CA,1699244802
433,harstad,68.799,16.5293,2.31,79,100,1.57,NO,1699245063
434,mecca,21.4267,39.8261,27.83,65,58,0.72,SA,1699245022
435,saint-philippe,-21.3585,55.7679,23.77,84,94,5.49,RE,1699245063
436,dzhambeyty,50.2536,52.595,7.85,73,34,5.75,KZ,1699245064
437,stephenville,32.2207,-98.2023,19.93,77,0,2.57,US,1699244974
438,saidpur,25.7777,88.8917,26.91,56,0,2.54,BD,1699245064
439,mgandu,-5.95,34.1333,20.47,67,82,3.17,TZ,1699245065
440,tahoua,14.8888,5.2692,23.99,22,0,3.09,NE,1699245065
441,birjand,32.8663,59.2211,12.26,87,75,0.0,IR,1699245065
442,emmett,43.8735,-116.4993,12.05,91,100,1.04,US,1699245066
443,carloforte,39.145,8.3058,19.02,62,61,5.11,IT,1699245066
444,bathsheba,13.2167,-59.5167,25.34,100,75,2.57,BB,1699245066
445,esquina,-30.0144,-59.5272,12.97,91,0,2.12,AR,1699245067
446,sitka,57.0531,-135.33,8.94,81,100,2.06,US,1699245067
447,arivonimamo,-19.0167,47.1833,18.03,77,98,4.32,MG,1699245068
448,suva,-18.1416,178.4415,29.71,70,40,4.63,FJ,1699245068
449,prince rupert,54.3161,-130.3201,9.83,96,100,5.14,CA,1699245016
450,eydhafushi,5.1033,73.0708,27.6,73,100,2.01,MV,1699245069
451,morehead city,34.7229,-76.726,14.99,80,0,1.54,US,1699244866
452,mogocha,53.7333,119.7667,-7.21,30,28,0.81,RU,1699245069
453,strathmore,51.0501,-113.3852,7.67,48,33,2.57,CA,1699245000
454,lata,40.1629,-8.3327,9.49,89,59,1.32,PT,1699245070
455,konarka,19.9,86.1167,28.22,57,83,5.25,IN,1699245070
456,karaton,-6.3424,106.1045,33.23,49,61,1.93,ID,1699245071
457,cambria,35.5641,-121.0808,18.32,98,32,2.84,US,1699245071
458,buka,40.8108,69.1986,18.68,22,100,0.66,UZ,1699245071
459,fale old settlement,-9.3852,-171.2468,28.74,70,100,1.35,TK,1699245072
460,thinadhoo,0.5333,72.9333,27.4,76,100,5.21,MV,1699245072
461,chonchi,-42.6128,-73.8092,11.56,99,100,3.4,CL,1699245072
462,tari,12.4086,4.4914,24.93,27,31,3.54,NG,1699245073
463,huilong,31.8111,121.655,17.09,44,85,10.04,CN,1699245073
464,sambava,-14.2667,50.1667,26.32,72,16,4.57,MG,1699245073
465,nanao,37.05,136.9667,26.29,62,100,6.81,JP,1699245074
466,saarlouis,49.3167,6.75,9.98,91,88,5.74,DE,1699245074
467,san luis,-33.295,-66.3356,20.64,37,0,7.42,AR,1699245075
468,east london,-33.0153,27.9116,17.52,100,100,1.26,ZA,1699245075
469,sur,22.5667,59.5289,29.12,48,0,3.09,OM,1699245075
470,villa gesell,-37.2639,-56.973,14.47,77,56,4.81,AR,1699244816
471,pandan,14.0453,124.1694,29.26,76,29,4.41,PH,1699245076
472,tommot,58.9564,126.2925,-10.14,77,15,0.55,RU,1699245076
473,talcahuano,-36.7167,-73.1167,11.82,87,0,1.03,CL,1699245077
474,seaside,36.6111,-121.8516,17.73,87,100,0.0,US,1699244850
475,aswan,24.0934,32.907,23.61,35,0,3.09,EG,1699245077
476,griffith,41.5284,-87.4237,12.25,59,0,4.63,US,1699244957
477,agadez,19.75,10.25,20.71,18,2,2.79,NE,1699245078
478,ancud,-41.8697,-73.8203,10.77,97,100,6.83,CL,1699245079
479,letterkenny,54.95,-7.7333,9.04,86,100,4.08,IE,1699245079
480,plettenberg bay,-34.0527,23.3716,16.67,70,79,1.18,ZA,1699245079
481,enriquillo,17.9,-71.2333,25.85,80,21,2.72,DO,1699245080
482,lompoc,34.6391,-120.4579,14.73,91,100,5.81,US,1699244932
483,mount pleasant,32.7941,-79.8626,11.08,91,0,0.0,US,1699245015
484,santa cruz,-17.8,-63.1667,24.7,69,45,2.57,BO,1699244986
485,genhe,50.7833,121.5167,-5.19,30,8,2.25,CN,1699245081
486,la toma,-33.0526,-65.6238,19.28,42,0,9.51,AR,1699245081
487,black river,18.0264,-77.8487,25.43,86,58,1.89,JM,1699245082
488,egilsstadir,65.2653,-14.3948,1.95,93,100,10.29,IS,1699245082
489,tannum sands,-23.9504,151.3693,24.3,78,100,4.63,AU,1699245082
490,smithers,54.7804,-127.1743,5.18,100,100,2.06,CA,1699245083
491,yaren,-0.5472,166.916,28.73,77,80,4.72,NR,1699245084
492,maine soroa,13.2114,12.0241,24.36,20,4,4.3,NE,1699245084
493,lospalos,-8.5186,127.0025,30.48,44,41,5.0,TL,1699245084
494,kerbakhiar,40.1067,46.0383,11.76,50,1,2.71,AZ,1699245085
495,lubuklinggau,-3.3,102.8667,30.2,68,100,1.32,ID,1699245085
496,tazacorte,28.629,-17.9293,21.19,85,75,5.66,ES,1699245085
497,urucui,-7.2294,-44.5561,25.12,81,12,1.05,BR,1699245086
498,port douglas,-16.4833,145.4667,26.4,66,81,5.32,AU,1699245086
499,guarda,40.5373,-7.2658,4.02,95,77,1.3,PT,1699245086
500,al bayda,32.7627,21.7551,15.72,69,0,2.69,LY,1699245087
501,jijiga,9.35,42.8,19.37,44,81,4.28,ET,1699245087
502,duong dong,10.2167,103.9667,31.0,74,20,4.12,VN,1699245087
503,luanda,-8.8368,13.2343,23.0,100,75,1.54,AO,1699245087
504,porto novo,6.4965,2.6036,25.61,90,70,1.54,BJ,1699245088
505,lashio,22.9333,97.75,27.28,55,58,0.85,MM,1699245088
506,lubang,13.8584,120.124,29.31,77,30,6.97,PH,1699245088
507,midland,31.9974,-102.0779,19.33,74,0,6.17,US,1699244997
508,pacific grove,36.6177,-121.9166,17.23,87,100,0.0,US,1699244956
509,new norfolk,-42.7826,147.0587,19.72,41,63,2.48,AU,1699245089
510,loacan,16.55,120.6667,27.43,57,11,0.82,PH,1699245090
511,gadzhiyevo,69.2551,33.3362,0.79,97,100,6.8,RU,1699245090
512,faratsiho,-19.4,46.95,17.11,76,92,2.03,MG,1699245090
513,usinsk,65.9939,57.5281,-0.52,97,100,8.49,RU,1699245091
514,villa ojo de agua,-29.5,-63.6938,15.12,59,0,4.61,AR,1699245091
515,beira,-19.8436,34.8389,19.05,100,0,1.54,MZ,1699245091
516,keflavik,64.0049,-22.5624,3.24,70,0,10.8,IS,1699245091
517,chernihiv,51.0,32.0,11.6,80,99,5.83,UA,1699245092
518,patterson,37.4716,-121.1297,21.1,72,98,0.53,US,1699245092
519,queenstown,-31.8976,26.8753,19.52,61,2,1.82,ZA,1699245015
520,zambezi,-13.5432,23.1047,20.65,80,98,0.77,ZM,1699245093
521,tazovsky,67.4667,78.7,-16.08,99,95,2.15,RU,1699245093
522,don carlos,7.68,125.005,31.6,56,61,0.8,PH,1699245093
523,santana,-0.0583,-51.1817,28.1,83,40,2.57,BR,1699245093
524,mendi,-6.1761,143.6513,17.28,91,100,1.11,PG,1699245094
525,kaohsiung,22.6163,120.3133,31.05,62,20,3.6,TW,1699244647
526,seydi,39.4816,62.9137,18.9,21,49,0.96,TM,1699245094
527,ribas do rio pardo,-20.4431,-53.7592,19.19,45,5,1.36,BR,1699245095
528,belabo,4.9333,13.3,19.69,97,29,0.89,CM,1699245096
529,gorom-gorom,14.4439,-0.2361,27.29,23,58,2.59,BF,1699245096
530,rio branco,-9.9747,-67.81,25.34,94,0,1.54,BR,1699245067
531,mar del plata,-38.0023,-57.5575,15.05,73,21,3.58,AR,1699245097
532,crespo,-32.0287,-60.3066,13.18,91,0,3.22,AR,1699245097
533,sharlyk,52.9167,54.75,3.21,78,36,6.26,RU,1699245097
534,ceres,37.5949,-120.9577,21.1,71,20,0.0,US,1699245045
535,issoudun,47.0,1.8333,9.83,93,75,5.66,FR,1699245098
536,porto velho,-8.7619,-63.9039,26.03,89,0,0.0,BR,1699245081
537,atbara,17.7022,33.9864,30.17,37,100,2.38,SD,1699245099
538,'ain el melh,34.8415,4.1638,12.0,76,43,2.26,DZ,1699245099
539,palikir - national government center,6.9248,158.1611,26.47,94,100,2.06,FM,1699245099
540,ta`u,-14.2336,-169.5144,26.58,83,98,10.33,AS,1699245099
541,fonte boa,-2.4959,-66.2662,23.31,98,81,0.81,BR,1699245100
542,manta,-0.95,-80.7333,24.88,73,100,4.63,EC,1699245100
543,ola,59.5833,151.2833,-7.2,70,38,4.73,RU,1699245100
544,tarawa,1.419,172.984,31.05,70,75,0.0,KI,1699245101
545,dauphin,51.1494,-100.0502,-0.92,100,100,5.14,CA,1699245101
546,virrat,62.2476,23.78,3.86,99,96,2.0,FI,1699245102
547,vorkuta,67.5,64.0,-7.17,91,100,3.43,RU,1699245102
548,khovd,48.0056,91.6419,-4.23,53,79,4.26,MN,1699245102
549,kirakira,-10.4544,161.9205,27.55,76,86,4.39,SB,1699245103
550,lautoka,-17.6167,177.4667,30.92,58,75,5.66,FJ,1699245103
551,general acha,-37.377,-64.6043,17.72,63,25,4.7,AR,1699245103
552,pervomayskoye,43.919,46.7102,14.76,92,93,2.34,RU,1699245103
553,puerto santa,-8.9906,-78.6456,18.37,90,100,3.56,PE,1699245104
554,daloa,6.8774,-6.4502,21.47,99,16,1.21,CI,1699245104
555,jwaneng,-24.6004,24.7303,22.51,52,50,5.0,BW,1699245104
556,macas,-2.3167,-78.1167,20.15,98,99,0.99,EC,1699245105
557,bam,29.106,58.357,18.7,50,72,2.61,IR,1699245105
558,newman,37.3138,-121.0208,19.13,72,100,0.89,US,1699245105
559,leava,-14.3,-178.1667,27.58,82,93,9.18,WF,1699245105
560,rosso,16.4986,-15.8153,25.55,23,1,4.57,SN,1699245106
561,bikenibeu village,1.3673,173.1241,30.98,70,75,0.0,KI,1699245106
562,bertoua,4.5833,13.6833,19.43,97,74,1.05,CM,1699245106
563,kiunga,-6.1219,141.2906,27.97,88,98,1.49,PG,1699245106
564,mahabad,36.7631,45.7222,10.19,52,20,3.31,IR,1699244902
565,conception bay south,47.4999,-52.9981,8.74,97,100,5.21,CA,1699245107
566,dubbo,-32.25,148.6167,27.07,29,40,2.57,AU,1699245107
567,mount isa,-20.7333,139.5,37.87,7,2,5.14,AU,1699245107
568,coxim,-18.5067,-54.76,25.97,48,10,2.87,BR,1699245108
569,pontes e lacerda,-15.2261,-59.3353,27.0,54,60,0.96,BR,1699245108
570,mangrol,21.1167,70.1167,30.66,35,7,2.21,IN,1699245108
571,maintirano,-18.0667,44.0167,28.03,64,2,1.96,MG,1699245108
572,xilin hot,43.9667,116.0333,-7.11,84,100,5.61,CN,1699245108
573,dolisie,-4.1997,12.6739,22.06,97,79,0.52,CG,1699245109
574,pangody,65.85,74.4859,-13.45,97,43,2.74,RU,1699245109
575,el tocuyo,9.7873,-69.7937,21.94,94,89,2.13,VE,1699245109
576,ilha de mocambique,-15.0342,40.7358,25.68,76,23,0.7,MZ,1699245109
577,garachico,28.7781,-17.7646,19.71,88,75,5.66,ES,1699245110
578,taraz,42.9,71.3667,6.23,87,100,3.0,KZ,1699245110
579,bomdila,27.25,92.4,16.34,49,3,2.88,IN,1699245110
580,wittstock,53.1612,12.4829,9.43,82,100,8.6,DE,1699245110
581,caleta de carquin,-11.0925,-77.6267,18.8,86,97,4.66,PE,1699245111
582,tengrela,10.4869,-6.4097,26.16,62,74,1.34,CI,1699245111
583,mbanza-ngungu,-5.25,14.8667,18.59,93,84,0.52,CD,1699245111
584,hilo,19.7297,-155.09,23.85,86,100,2.57,US,1699245112
585,diapaga,12.0708,1.7889,25.73,29,1,2.21,BF,1699245112
586,kochubey,44.3861,46.5825,13.84,92,100,2.77,RU,1699245112
587,port lincoln,-34.7333,135.8667,18.48,61,2,6.97,AU,1699245112
588,kristiansund,63.1115,7.732,6.36,75,100,1.03,NO,1699245113
589,casablanca,33.5928,-7.6192,17.12,61,95,4.36,MA,1699244813
590,sakaiminato,35.55,133.2333,26.96,65,75,7.2,JP,1699245113
591,mirny,62.5353,113.9611,-7.03,92,100,2.91,RU,1699244986
